{
  "tasks": [
    {
      "name": "Rianna Santra",
      "id": 1,
      "day": "10/24/2022 7:45 AM",
      "proposal": "STEM Week Volunteering at Nativity",
      "businessName": "Nativity School",
      "streetAddress": "1083 Pleasant St",
      "businessPhone": "",
      "highNeeds": true,
      "hours": 35.5,
      "city": "Worcester",
      "state": "MA",
      "zipcode": "01879",
      "status": "pending"
    },
    {
      "name": "Rianna Santra",
      "day": "10/24/2022 1:00 PM",
      "proposal": "Tutoring at Schoolhouse.world",
      "businessName": "I said this",
      "streetAddress": "Online",
      "businessPhone": "",
      "id": 2,
      "highNeeds": false,
      "hours": 15,
      "status": "approved"
    },
    {
      "name": "estupido",
      "day": "09/25/2022 3:00 AM",
      "proposal": "making people dumber",
      "businessName": "the idiot foundation",
      "streetAddress": "999 no-brain-cells street",
      "businessPhone": "",
      "id": 3,
      "highNeeds": true,
      "hours": 32,
      "status": "completed"
    },
    {
      "name": "CHICKEN ",
      "day": "06/04/2022 2:45 PM",
      "proposal": "Pecking people ",
      "businessName": "Sus 101",
      "streetAddress": "347398846839 MayFlower Drive ",
      "businessPhone": "",
      "highNeeds": false,
      "id": 5,
      "hours": 15,
      "status": "not approved"
    },
    {
      "name": "The Rock",
      "day": "04/01/2022 6:00 PM",
      "proposal": "be sleep deprived",
      "businessName": "mamamamamms",
      "streetAddress": "1234567890 sleepydude dr",
      "city": "Land of Lord Farquad",
      "state": "Shreklessland",
      "zipcode": "09876",
      "businessPhone": "",
      "highNeeds": false,
      "id": 6,
      "hours": 0,
      "status": "not approved"
    },
    {
      "name": "sjankas",
      "day": "05/06/2007 6:56 AM",
      "proposal": "working on my stem project",
      "businessName": "asdnalsndksa",
      "streetAddress": "asdnkjsankjd",
      "businessPhone": "asdkasdmk",
      "highNeeds": true,
      "hours": 16405,
      "id": 7,
      "status": "pending",
      "city": "absxa",
      "state": "asnx nams",
      "zipcode": "asxas"
    },
    {
      "name": "Los Estudiantes",
      "day": "11/08/2022 1:23 PM",
      "proposal": "Running Away From A Fire",
      "businessName": "MAMS",
      "streetAddress": "85 Prescott Strett",
      "city": "Worcester",
      "state": "MA",
      "zipcode": "01879",
      "businessPhone": "",
      "highNeeds": true,
      "hours": 12000,
      "id": 8,
      "status": "pending"
    },
    {
      "name": "a",
      "day": "b",
      "proposal": "c",
      "businessName": "d",
      "streetAddress": "e",
      "city": "f",
      "state": "g",
      "zipcode": "h",
      "businessPhone": "",
      "highNeeds": false,
      "hours": 0,
      "status": "pending",
      "id": 9
    }
  ]
}